[
  {"name":"Nicolaus Copernicus","birth_year":1473,"death_year":1543,"birthplace":"Toruń, Poland","lat":53.0139,"lon":18.5981,"bio":"Renaissance astronomer who placed the Sun—not Earth—at the center, launching a profound rethinking of celestial mechanics and physics.","sources":["https://en.wikipedia.org/wiki/Nicolaus_Copernicus"]},
  {"name":"Galileo Galilei","birth_year":1564,"death_year":1642,"birthplace":"Pisa, Italy","lat":43.7167,"lon":10.4000,"bio":"Pioneer of kinematics and telescopic astronomy; articulated inertia, studied falling bodies, and defended heliocentrism with quantitative experiments.","sources":["https://en.wikipedia.org/wiki/Galileo_Galilei"]},
  {"name":"Johannes Kepler","birth_year":1571,"death_year":1630,"birthplace":"Weil der Stadt, Germany","lat":48.7490,"lon":8.8730,"bio":"Derived planetary laws of motion from Tycho’s data, uniting precise observation with physical causes for celestial orbits.","sources":["https://en.wikipedia.org/wiki/Johannes_Kepler"]},
  {"name":"Christiaan Huygens","birth_year":1629,"death_year":1695,"birthplace":"The Hague, Netherlands","lat":52.0705,"lon":4.3007,"bio":"Formulated the wave theory of light and discovered Saturn’s moon Titan; advanced pendulum clocks and mechanics.","sources":["https://en.wikipedia.org/wiki/Christiaan_Huygens"]},
  {"name":"René Descartes","birth_year":1596,"death_year":1650,"birthplace":"Descartes, France","lat":46.9790,"lon":0.6990,"bio":"Developed analytic geometry and mechanistic physics ideas; helped set mathematical foundations for later physical theories.","sources":["https://en.wikipedia.org/wiki/Ren%C3%A9_Descartes"]},
  {"name":"Blaise Pascal","birth_year":1623,"death_year":1662,"birthplace":"Clermont-Ferrand, France","lat":45.7772,"lon":3.0870,"bio":"Linked pressure to altitude, studied vacuums, and co-founded probability—shaping experimental physics and mathematics.","sources":["https://en.wikipedia.org/wiki/Blaise_Pascal"]},
  {"name":"Robert Hooke","birth_year":1635,"death_year":1703,"birthplace":"Freshwater, England","lat":50.6800,"lon":-1.5300,"bio":"Elasticity’s namesake; improved microscopes, mapped the Moon, and advanced experimental method at the Royal Society.","sources":["https://en.wikipedia.org/wiki/Robert_Hooke"]},
  {"name":"Isaac Newton","birth_year":1643,"death_year":1727,"birthplace":"Woolsthorpe-by-Colsterworth, England","lat":52.8090,"lon":-0.6140,"bio":"Unified celestial and terrestrial physics via laws of motion and universal gravitation; founded calculus and modern optics.","sources":["https://en.wikipedia.org/wiki/Isaac_Newton"]},
  {"name":"Gottfried Wilhelm Leibniz","birth_year":1646,"death_year":1716,"birthplace":"Leipzig, Germany","lat":51.3397,"lon":12.3731,"bio":"Co-invented calculus and argued for energy-like quantities in dynamics that influenced later physical formalism.","sources":["https://en.wikipedia.org/wiki/Gottfried_Wilhelm_Leibniz"]},
  {"name":"Edmond Halley","birth_year":1656,"death_year":1742,"birthplace":"London, England","lat":51.5072,"lon":-0.1276,"bio":"Predicted periodic returns of the comet bearing his name and supported Newton’s _Principia_ publication.","sources":["https://en.wikipedia.org/wiki/Edmond_Halley"]},
  {"name":"Ole Rømer","birth_year":1644,"death_year":1710,"birthplace":"Aarhus, Denmark","lat":56.1629,"lon":10.2039,"bio":"First to measure the finite speed of light using eclipses of Jupiter’s moon Io.","sources":["https://en.wikipedia.org/wiki/Ole_R%C3%B8mer"]},
  {"name":"Henry Cavendish","birth_year":1731,"death_year":1810,"birthplace":"Nice, France","lat":43.7102,"lon":7.2620,"bio":"Measured Earth’s density via torsion balance; isolated hydrogen and studied electrostatics quantitatively.","sources":["https://en.wikipedia.org/wiki/Henry_Cavendish"]},
  {"name":"Charles-Augustin de Coulomb","birth_year":1736,"death_year":1806,"birthplace":"Angoulême, France","lat":45.6484,"lon":0.1562,"bio":"Established the inverse-square law of electric force with torsion balance experiments.","sources":["https://en.wikipedia.org/wiki/Charles-Augustin_de_Coulomb"]},
  {"name":"Joseph-Louis Lagrange","birth_year":1736,"death_year":1813,"birthplace":"Turin, Italy","lat":45.0703,"lon":7.6869,"bio":"Formulated analytical mechanics and the Lagrangian, a cornerstone of modern theoretical physics.","sources":["https://en.wikipedia.org/wiki/Joseph-Louis_Lagrange"]},
  {"name":"Pierre-Simon Laplace","birth_year":1749,"death_year":1827,"birthplace":"Beaumont-en-Auge, France","lat":49.2160,"lon":0.1110,"bio":"Cast gravitation and celestial motion into probability and differential equations; anticipated the nebular hypothesis.","sources":["https://en.wikipedia.org/wiki/Pierre-Simon_Laplace"]},
  {"name":"André-Marie Ampère","birth_year":1775,"death_year":1836,"birthplace":"Lyon, France","lat":45.7640,"lon":4.8357,"bio":"Unified electricity and magnetism experimentally; the ampere honors his foundational work in electrodynamics.","sources":["https://en.wikipedia.org/wiki/Andr%C3%A9-Marie_Amp%C3%A8re"]},
  {"name":"Augustin-Jean Fresnel","birth_year":1788,"death_year":1827,"birthplace":"Broglie, France","lat":49.0830,"lon":0.5250,"bio":"Explained diffraction and polarization, firmly establishing light’s wave nature.","sources":["https://en.wikipedia.org/wiki/Augustin-Jean_Fresnel"]},
  {"name":"Michael Faraday","birth_year":1791,"death_year":1867,"birthplace":"Newington Butts, London","lat":51.4880,"lon":-0.1070,"bio":"Discovered electromagnetic induction and field concepts; his experiments fueled modern electrical technology.","sources":["https://en.wikipedia.org/wiki/Michael_Faraday"]},
  {"name":"Georg Ohm","birth_year":1789,"death_year":1854,"birthplace":"Erlangen, Germany","lat":49.5970,"lon":11.0050,"bio":"Quantified the relation between voltage, current, and resistance—Ohm’s law.","sources":["https://en.wikipedia.org/wiki/Georg_Ohm"]},
  {"name":"Sadi Carnot","birth_year":1796,"death_year":1832,"birthplace":"Paris, France","lat":48.8566,"lon":2.3522,"bio":"Laid thermodynamics’ foundations by analyzing heat engines and reversible cycles.","sources":["https://en.wikipedia.org/wiki/Sadi_Carnot"]},
  {"name":"Joseph Fourier","birth_year":1768,"death_year":1830,"birthplace":"Auxerre, France","lat":47.7987,"lon":3.5730,"bio":"Showed that functions decompose into trigonometric series, enabling heat equation solutions and spectral methods across physics.","sources":["https://en.wikipedia.org/wiki/Joseph_Fourier"]},
  {"name":"Carl Friedrich Gauss","birth_year":1777,"death_year":1855,"birthplace":"Braunschweig, Germany","lat":52.2689,"lon":10.5268,"bio":"Advanced potential theory, least squares, and magnetism; a universal figure linking math with physical measurement.","sources":["https://en.wikipedia.org/wiki/Carl_Friedrich_Gauss"]},
  {"name":"James Clerk Maxwell","birth_year":1831,"death_year":1879,"birthplace":"Edinburgh, Scotland","lat":55.9533,"lon":-3.1883,"bio":"Unified electricity, magnetism, and light into Maxwell’s equations—heralding modern field theory and relativity.","sources":["https://en.wikipedia.org/wiki/James_Clerk_Maxwell"]},
  {"name":"Ludwig Boltzmann","birth_year":1844,"death_year":1906,"birthplace":"Vienna, Austria","lat":48.2082,"lon":16.3738,"bio":"Founded statistical mechanics, linking microscopic ensembles to macroscopic entropy and thermodynamics.","sources":["https://en.wikipedia.org/wiki/Ludwig_Boltzmann"]},
  {"name":"J. Willard Gibbs","birth_year":1839,"death_year":1903,"birthplace":"New Haven, USA","lat":41.3083,"lon":-72.9279,"bio":"Created modern thermodynamics and vector analysis; chemical potentials and phase rules bear his imprint.","sources":["https://en.wikipedia.org/wiki/Josiah_Willard_Gibbs"]},
  {"name":"Hermann von Helmholtz","birth_year":1821,"death_year":1894,"birthplace":"Potsdam, Germany","lat":52.3906,"lon":13.0645,"bio":"Linked energy conservation to physiology and acoustics; reframed optics and perception quantitatively.","sources":["https://en.wikipedia.org/wiki/Hermann_von_Helmholtz"]},
  {"name":"Gustav Kirchhoff","birth_year":1824,"death_year":1887,"birthplace":"Königsberg (Kaliningrad), Russia","lat":54.7104,"lon":20.4522,"bio":"Formulated circuit laws and, with Bunsen, founded spectral analysis crucial to astrophysics.","sources":["https://en.wikipedia.org/wiki/Gustav_Kirchhoff"]},
  {"name":"Heinrich Hertz","birth_year":1857,"death_year":1894,"birthplace":"Hamburg, Germany","lat":53.5511,"lon":9.9937,"bio":"Generated and detected radio waves, confirming Maxwell’s theory; the hertz unit honors him.","sources":["https://en.wikipedia.org/wiki/Heinrich_Hertz"]},
  {"name":"Albert A. Michelson","birth_year":1852,"death_year":1931,"birthplace":"Strzelno, Poland","lat":52.6270,"lon":18.1720,"bio":"Precision interferometrist; the Michelson–Morley experiment probed the speed of light’s invariance.","sources":["https://en.wikipedia.org/wiki/Albert_A._Michelson"]},
  {"name":"Henri Becquerel","birth_year":1852,"death_year":1908,"birthplace":"Paris, France","lat":48.8566,"lon":2.3522,"bio":"Discovered natural radioactivity via uranium salts’ spontaneous emissions on photographic plates.","sources":["https://en.wikipedia.org/wiki/Henri_Becquerel"]},
  {"name":"Marie Curie","birth_year":1867,"death_year":1934,"birthplace":"Warsaw, Poland","lat":52.2297,"lon":21.0122,"bio":"Pioneered radioactivity; isolated polonium and radium; first person to win two Nobel Prizes.","sources":["https://en.wikipedia.org/wiki/Marie_Curie","https://www.nobelprize.org/prizes/physics/1903/curie-marie/facts/"]},
  {"name":"Pierre Curie","birth_year":1859,"death_year":1906,"birthplace":"Paris, France","lat":48.8566,"lon":2.3522,"bio":"Co-discovered radioactivity’s properties; work on piezoelectricity and crystal symmetry was foundational.","sources":["https://en.wikipedia.org/wiki/Pierre_Curie"]},
  {"name":"Ernest Rutherford","birth_year":1871,"death_year":1937,"birthplace":"Brightwater, New Zealand","lat":-41.4063,"lon":173.1221,"bio":"Father of nuclear physics; discovered the nucleus and proposed the planetary atomic model.","sources":["https://en.wikipedia.org/wiki/Ernest_Rutherford"]},
  {"name":"Max Planck","birth_year":1858,"death_year":1947,"birthplace":"Kiel, Germany","lat":54.3233,"lon":10.1228,"bio":"Quantized energy to resolve blackbody radiation, launching quantum theory.","sources":["https://en.wikipedia.org/wiki/Max_Planck"]},
  {"name":"Albert Einstein","birth_year":1879,"death_year":1955,"birthplace":"Ulm, Germany","lat":48.4011,"lon":9.9876,"bio":"Formulated special and general relativity; explained the photoelectric effect and Brownian motion.","sources":["https://en.wikipedia.org/wiki/Albert_Einstein"]},
  {"name":"Satyendra Nath Bose","birth_year":1894,"death_year":1974,"birthplace":"Kolkata, India","lat":22.5726,"lon":88.3639,"bio":"Co-founded quantum statistics; bosons and Bose–Einstein condensation bear his name.","sources":["https://en.wikipedia.org/wiki/Satyendra_Nath_Bose"]},
  {"name":"Enrico Fermi","birth_year":1901,"death_year":1954,"birthplace":"Rome, Italy","lat":41.9028,"lon":12.4964,"bio":"Built the first controlled nuclear reactor; unified theory and experiment across nuclear and particle physics.","sources":["https://en.wikipedia.org/wiki/Enrico_Fermi"]},
  {"name":"Werner Heisenberg","birth_year":1901,"death_year":1976,"birthplace":"Würzburg, Germany","lat":49.7913,"lon":9.9534,"bio":"Founded matrix mechanics and the uncertainty principle; central to quantum foundations.","sources":["https://en.wikipedia.org/wiki/Werner_Heisenberg"]},
  {"name":"Paul Dirac","birth_year":1902,"death_year":1984,"birthplace":"Bristol, England","lat":51.4545,"lon":-2.5879,"bio":"Unified quantum mechanics and special relativity; predicted antimatter through the Dirac equation.","sources":["https://en.wikipedia.org/wiki/Paul_Dirac"]},
  {"name":"Erwin Schrödinger","birth_year":1887,"death_year":1961,"birthplace":"Vienna, Austria","lat":48.2082,"lon":16.3738,"bio":"Wave mechanics pioneer; the Schrödinger equation underpins non-relativistic quantum theory.","sources":["https://en.wikipedia.org/wiki/Erwin_Schr%C3%B6dinger"]},
  {"name":"Wolfgang Pauli","birth_year":1900,"death_year":1958,"birthplace":"Vienna, Austria","lat":48.2082,"lon":16.3738,"bio":"Formulated the exclusion principle, explaining electron shell structure and matter’s stability.","sources":["https://en.wikipedia.org/wiki/Wolfgang_Pauli"]},
  {"name":"Max Born","birth_year":1882,"death_year":1970,"birthplace":"Wrocław, Poland","lat":51.1079,"lon":17.0385,"bio":"Interpreted the wavefunction probabilistically; advanced lattice dynamics and crystal physics.","sources":["https://en.wikipedia.org/wiki/Max_Born"]},
  {"name":"Louis de Broglie","birth_year":1892,"death_year":1987,"birthplace":"Dieppe, France","lat":49.9220,"lon":1.0770,"bio":"Proposed matter waves, unifying particle and wave descriptions in quantum mechanics.","sources":["https://en.wikipedia.org/wiki/Louis_de_Broglie"]},
  {"name":"Niels Bohr","birth_year":1885,"death_year":1962,"birthplace":"Copenhagen, Denmark","lat":55.6761,"lon":12.5683,"bio":"Quantized atomic model; complementarity and Copenhagen interpretation shaped quantum thought.","sources":["https://en.wikipedia.org/wiki/Niels_Bohr"]},
  {"name":"Lise Meitner","birth_year":1878,"death_year":1968,"birthplace":"Vienna, Austria","lat":48.2082,"lon":16.3738,"bio":"Explained nuclear fission’s physics with Frisch; an unsung architect of nuclear-era insights.","sources":["https://en.wikipedia.org/wiki/Lise_Meitner"]},
  {"name":"Abdus Salam","birth_year":1926,"death_year":1996,"birthplace":"Jhang, Pakistan","lat":31.2701,"lon":72.3184,"bio":"Co-developed electroweak unification with Weinberg and Glashow, earning the Nobel Prize.","sources":["https://en.wikipedia.org/wiki/Abdus_Salam","https://www.nobelprize.org/prizes/physics/1979/summary/"]},
  {"name":"Chen-Ning Yang","birth_year":1922,"death_year":null,"birthplace":"Hefei, China","lat":31.8206,"lon":117.2272,"bio":"With Lee, showed parity is violated in weak interactions; advanced gauge theories.","sources":["https://en.wikipedia.org/wiki/Chen-Ning_Yang"]},
  {"name":"Tsung-Dao Lee","birth_year":1926,"death_year":null,"birthplace":"Shanghai, China","lat":31.2304,"lon":121.4737,"bio":"Co-discovered parity violation in weak interactions, reshaping particle physics symmetries.","sources":["https://en.wikipedia.org/wiki/Tsung-Dao_Lee"]},
  {"name":"Eugene Wigner","birth_year":1902,"death_year":1995,"birthplace":"Budapest, Hungary","lat":47.4979,"lon":19.0402,"bio":"Brought group theory to quantum mechanics; clarified nuclear structure and symmetries.","sources":["https://en.wikipedia.org/wiki/Eugene_Wigner"]},
  {"name":"Lev Landau","birth_year":1908,"death_year":1968,"birthplace":"Baku, Azerbaijan","lat":40.4093,"lon":49.8671,"bio":"Created Landau theory of phase transitions and Fermi liquids; towering theorist across condensed matter.","sources":["https://en.wikipedia.org/wiki/Lev_Landau"]},
  {"name":"Andrei Sakharov","birth_year":1921,"death_year":1989,"birthplace":"Moscow, Russia","lat":55.7558,"lon":37.6173,"bio":"Plasma physicist and dissident; advanced controlled fusion and championed human rights.","sources":["https://en.wikipedia.org/wiki/Andrei_Sakharov"]},
  {"name":"John Stewart Bell","birth_year":1928,"death_year":1990,"birthplace":"Belfast, Northern Ireland","lat":54.5970,"lon":-5.9300,"bio":"Derived Bell’s theorem, testing locality and realism in quantum mechanics.","sources":["https://en.wikipedia.org/wiki/John_Stewart_Bell"]},
  {"name":"Richard Feynman","birth_year":1918,"death_year":1988,"birthplace":"New York City, USA","lat":40.7128,"lon":-74.0060,"bio":"Path integrals and QED architect; legendary teacher who bridged fundamentals and applications.","sources":["https://en.wikipedia.org/wiki/Richard_Feynman"]},
  {"name":"Julian Schwinger","birth_year":1918,"death_year":1994,"birthplace":"New York City, USA","lat":40.7128,"lon":-74.0060,"bio":"Co-developed quantum electrodynamics with covariant methods and renormalization.","sources":["https://en.wikipedia.org/wiki/Julian_Schwinger"]},
  {"name":"Sin-Itiro Tomonaga","birth_year":1906,"death_year":1979,"birthplace":"Tokyo, Japan","lat":35.6762,"lon":139.6503,"bio":"Recast QED with relativistic consistency, sharing the Nobel with Schwinger and Feynman.","sources":["https://en.wikipedia.org/wiki/Sin-Itiro_Tomonaga"]},
  {"name":"Stephen Hawking","birth_year":1942,"death_year":2018,"birthplace":"Oxford, England","lat":51.7520,"lon":-1.2577,"bio":"Revealed black hole radiation and linked gravity, quantum theory, and thermodynamics.","sources":["https://en.wikipedia.org/wiki/Stephen_Hawking"]},
  {"name":"Roger Penrose","birth_year":1931,"death_year":null,"birthplace":"Colchester, England","lat":51.8892,"lon":0.9042,"bio":"Proved singularity theorems and advanced twistor theory; 2020 Nobel for black hole formation.","sources":["https://en.wikipedia.org/wiki/Roger_Penrose"]},
  {"name":"Peter Higgs","birth_year":1929,"death_year":2024,"birthplace":"Newcastle upon Tyne, England","lat":54.9783,"lon":-1.6178,"bio":"Proposed the mass-giving Higgs mechanism; discovery of the boson confirmed it.","sources":["https://en.wikipedia.org/wiki/Peter_Higgs"]},
  {"name":"Carl D. Anderson","birth_year":1905,"death_year":1991,"birthplace":"New York City, USA","lat":40.7128,"lon":-74.0060,"bio":"Discovered the positron in cosmic rays, verifying antimatter experimentally.","sources":["https://en.wikipedia.org/wiki/Carl_David_Anderson"]},
  {"name":"Subrahmanyan Chandrasekhar","birth_year":1910,"death_year":1995,"birthplace":"Lahore, Pakistan","lat":31.5204,"lon":74.3587,"bio":"Explained stellar evolution limits (Chandrasekhar mass), pivotal to white dwarfs and black holes.","sources":["https://en.wikipedia.org/wiki/Subrahmanyan_Chandrasekhar"]},
  {"name":"Edwin Hubble","birth_year":1889,"death_year":1953,"birthplace":"Marshfield, Missouri, USA","lat":37.3395,"lon":-92.9063,"bio":"Showed expanding universe via galaxy redshifts; set extragalactic astronomy’s scale.","sources":["https://en.wikipedia.org/wiki/Edwin_Hubble"]},
  {"name":"Emmy Noether","birth_year":1882,"death_year":1935,"birthplace":"Erlangen, Germany","lat":49.5970,"lon":11.0050,"bio":"Linked symmetries to conservation laws—an indispensable pillar of modern theoretical physics.","sources":["https://en.wikipedia.org/wiki/Emmy_Noether"]},
  {"name":"John Archibald Wheeler","birth_year":1911,"death_year":2008,"birthplace":"Jacksonville, Florida, USA","lat":30.3322,"lon":-81.6557,"bio":"Coined “black hole”; advanced nuclear fission theory and quantum foundations.","sources":["https://en.wikipedia.org/wiki/John_Archibald_Wheeler"]},
  {"name":"Fritz Zwicky","birth_year":1898,"death_year":1974,"birthplace":"Varna, Bulgaria","lat":43.2141,"lon":27.9147,"bio":"Inferred dark matter in galaxy clusters; innovator of supernova and neutron-star ideas.","sources":["https://en.wikipedia.org/wiki/Fritz_Zwicky"]},
  {"name":"Hans Bethe","birth_year":1906,"death_year":2005,"birthplace":"Strasbourg, France","lat":48.5734,"lon":7.7521,"bio":"Explained stellar nucleosynthesis (pp chain, CNO cycle) and shaped nuclear theory.","sources":["https://en.wikipedia.org/wiki/Hans_Bethe"]},
  {"name":"Isidor Isaac Rabi","birth_year":1898,"death_year":1988,"birthplace":"Rymanów, Poland","lat":49.5727,"lon":21.8723,"bio":"Developed molecular beam magnetic resonance, foundational for NMR and MRI.","sources":["https://en.wikipedia.org/wiki/Isidor_Isaac_Rabi"]},
  {"name":"Charles H. Townes","birth_year":1915,"death_year":2015,"birthplace":"Greenville, South Carolina, USA","lat":34.8526,"lon":-82.3940,"bio":"Co-invented the maser and laser, transforming spectroscopy and technology.","sources":["https://en.wikipedia.org/wiki/Charles_H._Townes"]},
  {"name":"Felix Bloch","birth_year":1905,"death_year":1983,"birthplace":"Zürich, Switzerland","lat":47.3769,"lon":8.5417,"bio":"Explained electrons in crystals; nuclear magnetic resonance pioneer.","sources":["https://en.wikipedia.org/wiki/Felix_Bloch"]},
  {"name":"Edward M. Purcell","birth_year":1912,"death_year":1997,"birthplace":"Taylorville, Illinois, USA","lat":39.5484,"lon":-89.2937,"bio":"Co-discovered 21-cm hydrogen line; advanced NMR in solids and liquids.","sources":["https://en.wikipedia.org/wiki/Edward_Mills_Purcell"]},
  {"name":"John Bardeen","birth_year":1908,"death_year":1991,"birthplace":"Madison, Wisconsin, USA","lat":43.0722,"lon":-89.4008,"bio":"Two-time Nobel laureate for the transistor and BCS superconductivity theory.","sources":["https://en.wikipedia.org/wiki/John_Bardeen"]},
  {"name":"William Shockley","birth_year":1910,"death_year":1989,"birthplace":"London, England","lat":51.5072,"lon":-0.1276,"bio":"Co-invented the transistor; later work influenced semiconductor physics and technology.","sources":["https://en.wikipedia.org/wiki/William_Shockley"]},
  {"name":"William Henry Bragg","birth_year":1862,"death_year":1942,"birthplace":"Wigton, England","lat":54.8239,"lon":-3.1616,"bio":"With his son, created X-ray crystallography—resolving atomic structures of matter.","sources":["https://en.wikipedia.org/wiki/William_Henry_Bragg"]},
  {"name":"William Lawrence Bragg","birth_year":1890,"death_year":1971,"birthplace":"Adelaide, Australia","lat":-34.9285,"lon":138.6007,"bio":"Youngest Nobel laureate in physics; co-founded X-ray crystallography’s methods.","sources":["https://en.wikipedia.org/wiki/Lawrence_Bragg"]},
  {"name":"Pyotr Kapitza","birth_year":1894,"death_year":1984,"birthplace":"Kronstadt, Russia","lat":59.9936,"lon":29.7667,"bio":"Low-temperature experimentalist; discovered superfluidity in helium.","sources":["https://en.wikipedia.org/wiki/Pyotr_Kapitza"]},
  {"name":"Igor Tamm","birth_year":1895,"death_year":1971,"birthplace":"Vladivostok, Russia","lat":43.1155,"lon":131.8855,"bio":"Explained Cherenkov radiation with Frank and developed nuclear-theory advances.","sources":["https://en.wikipedia.org/wiki/Igor_Tamm"]},
  {"name":"Pavel Cherenkov","birth_year":1904,"death_year":1990,"birthplace":"Novaya Chigla, Russia","lat":51.0630,"lon":40.1760,"bio":"Observed blue glow from particles faster than light in media—Cherenkov radiation.","sources":["https://en.wikipedia.org/wiki/Pavel_Cherenkov"]},
  {"name":"Gerard ’t Hooft","birth_year":1946,"death_year":null,"birthplace":"Den Helder, Netherlands","lat":52.9580,"lon":4.7590,"bio":"Renormalized non-Abelian gauge theories, cementing the Standard Model.","sources":["https://en.wikipedia.org/wiki/Gerard_%27t_Hooft"]},
  {"name":"Martinus J. G. Veltman","birth_year":1931,"death_year":2021,"birthplace":"Waalwijk, Netherlands","lat":51.6904,"lon":5.0708,"bio":"With ’t Hooft, proved renormalizability of electroweak theory.","sources":["https://en.wikipedia.org/wiki/Martinus_J._G._Veltman"]},
  {"name":"David J. Gross","birth_year":1941,"death_year":null,"birthplace":"Washington, D.C., USA","lat":38.9072,"lon":-77.0369,"bio":"Co-discovered asymptotic freedom in QCD; advanced string and field theory.","sources":["https://en.wikipedia.org/wiki/David_Gross"]},
  {"name":"H. David Politzer","birth_year":1949,"death_year":null,"birthplace":"New York City, USA","lat":40.7128,"lon":-74.0060,"bio":"Shared Nobel for asymptotic freedom, explaining quark interactions at high energies.","sources":["https://en.wikipedia.org/wiki/H._David_Politzer"]},
  {"name":"Frank Wilczek","birth_year":1951,"death_year":null,"birthplace":"New York City, USA","lat":40.7128,"lon":-74.0060,"bio":"Asymptotic freedom co-discoverer; contributions span QCD, axions, and topological matter.","sources":["https://en.wikipedia.org/wiki/Frank_Wilczek"]},
  {"name":"Edward Witten","birth_year":1951,"death_year":null,"birthplace":"Baltimore, Maryland, USA","lat":39.2904,"lon":-76.6122,"bio":"Leading string theorist; reframed quantum field theory with deep mathematical structures.","sources":["https://en.wikipedia.org/wiki/Edward_Witten"]},
  {"name":"Russell A. Hulse","birth_year":1950,"death_year":null,"birthplace":"New York City, USA","lat":40.7128,"lon":-74.0060,"bio":"Co-discovered the Hulse–Taylor binary pulsar, confirming gravitational-wave damping.","sources":["https://en.wikipedia.org/wiki/Russell_Alan_Hulse"]},
  {"name":"Joseph H. Taylor Jr.","birth_year":1941,"death_year":null,"birthplace":"Philadelphia, USA","lat":39.9526,"lon":-75.1652,"bio":"Shared Nobel for binary pulsar tests of general relativity.","sources":["https://en.wikipedia.org/wiki/Joseph_Hooton_Taylor_Jr."]},
  {"name":"Jim Peebles","birth_year":1935,"death_year":null,"birthplace":"Winnipeg, Canada","lat":49.8954,"lon":-97.1385,"bio":"Shaped physical cosmology: CMB, structure formation, and dark-matter frameworks.","sources":["https://en.wikipedia.org/wiki/Jim_Peebles"]},
  {"name":"Michel Mayor","birth_year":1942,"death_year":null,"birthplace":"Lausanne, Switzerland","lat":46.5197,"lon":6.6323,"bio":"With Queloz, found the first exoplanet orbiting a Sun-like star.","sources":["https://en.wikipedia.org/wiki/Michel_Mayor"]},
  {"name":"Didier Queloz","birth_year":1966,"death_year":null,"birthplace":"Geneva, Switzerland","lat":46.2044,"lon":6.1432,"bio":"Co-discovered 51 Pegasi b, igniting exoplanetary science.","sources":["https://en.wikipedia.org/wiki/Didier_Queloz"]},
  {"name":"John C. Mather","birth_year":1946,"death_year":null,"birthplace":"Roanoke, Virginia, USA","lat":37.2710,"lon":-79.9414,"bio":"COBE project leader; mapped CMB spectrum and anisotropy.","sources":["https://en.wikipedia.org/wiki/John_C._Mather"]},
  {"name":"George F. Smoot","birth_year":1945,"death_year":null,"birthplace":"Jacksonville (Yukon), Florida, USA","lat":30.3322,"lon":-81.6557,"bio":"COBE anisotropy co-discoverer, sharpening Big Bang cosmology.","sources":["https://en.wikipedia.org/wiki/George_Smoot"]},
  {"name":"Adam G. Riess","birth_year":1969,"death_year":null,"birthplace":"Washington, D.C., USA","lat":38.9072,"lon":-77.0369,"bio":"Measured cosmic acceleration via supernovae; key to dark energy discovery.","sources":["https://en.wikipedia.org/wiki/Adam_Riess"]},
  {"name":"Saul Perlmutter","birth_year":1959,"death_year":null,"birthplace":"Champaign–Urbana, Illinois, USA","lat":40.1106,"lon":-88.2073,"bio":"Led supernova searches revealing the accelerating universe.","sources":["https://en.wikipedia.org/wiki/Saul_Perlmutter"]},
  {"name":"Brian P. Schmidt","birth_year":1967,"death_year":null,"birthplace":"Missoula, Montana, USA","lat":46.8721,"lon":-113.9939,"bio":"Co-led observations that uncovered cosmic acceleration.","sources":["https://en.wikipedia.org/wiki/Brian_Schmidt"]},
  {"name":"Vera Rubin","birth_year":1928,"death_year":2016,"birthplace":"Philadelphia, USA","lat":39.9526,"lon":-75.1652,"bio":"Measured galaxy rotation curves, giving decisive evidence for dark matter.","sources":["https://en.wikipedia.org/wiki/Vera_Rubin"]},
  {"name":"Jocelyn Bell Burnell","birth_year":1943,"death_year":null,"birthplace":"Lurgan, Northern Ireland","lat":54.4660,"lon":-6.3330,"bio":"Discovered pulsars as a graduate student, opening a new window on compact objects.","sources":["https://en.wikipedia.org/wiki/Jocelyn_Bell_Burnell"]},
  {"name":"Mildred Dresselhaus","birth_year":1930,"death_year":2017,"birthplace":"Brooklyn, New York, USA","lat":40.6782,"lon":-73.9442,"bio":"Transformed carbon science and nanomaterials; championed women in physics.","sources":["https://en.wikipedia.org/wiki/Mildred_Dresselhaus"]},
  {"name":"Donna Strickland","birth_year":1959,"death_year":null,"birthplace":"Guelph, Canada","lat":43.5448,"lon":-80.2482,"bio":"Co-invented chirped-pulse amplification, enabling high-intensity ultrafast lasers.","sources":["https://en.wikipedia.org/wiki/Donna_Strickland"]},
  {"name":"Andrea Ghez","birth_year":1965,"death_year":null,"birthplace":"New York City, USA","lat":40.7128,"lon":-74.0060,"bio":"Measured stellar orbits proving a supermassive black hole at the Milky Way’s center.","sources":["https://en.wikipedia.org/wiki/Andrea_Ghez"]},
  {"name":"Kip S. Thorne","birth_year":1940,"death_year":null,"birthplace":"Logan, Utah, USA","lat":41.7360,"lon":-111.8338,"bio":"Theorist of gravitation and astrophysics; LIGO co-founder and 2017 Nobel laureate.","sources":["https://en.wikipedia.org/wiki/Kip_Thorne"]},
  {"name":"Rainer Weiss","birth_year":1932,"death_year":null,"birthplace":"Berlin, Germany","lat":52.5200,"lon":13.4050,"bio":"Pioneered laser interferometry for LIGO, enabling direct detection of gravitational waves.","sources":["https://en.wikipedia.org/wiki/Rainer_Weiss"]},
  {"name":"Barry C. Barish","birth_year":1936,"death_year":null,"birthplace":"Omaha, Nebraska, USA","lat":41.2565,"lon":-95.9345,"bio":"Led LIGO to detection; advanced large-scale experimental physics.","sources":["https://en.wikipedia.org/wiki/Barry_Barish"]}
]
